Data Date (UTC); LATITUDE; LONGITUDE; JHOUR; GPS_FIX_JHOUR; BP; BPT; SST; AT; RH; SWS; WS; UVWD; WD; HEADING; PITCH; ROLL; VBAT; SBDTIME; TTFF; Report Body
2022-05-13 12:00; 56.438280; -61.473600; 3180.00; 3180.00; 1022.8; -0.6; 0.1; 1.4; 73.0; 2.75; 2.75; 315.6543; 315.6543; 357.5304; 1.4; 4.5; 13.75;30;30; 31B0D80F996666920B0BE0781FE2028871A7A941860A0A31B01E
2022-05-13 09:00; 56.438280; -61.473780; 3177.00; 3177.00; 1023.4; 0.4; 0.0; -0.6; 77.5; 2.75; 2.75; 311.7834; 311.7834; 357.5304; 1.3; 4.5; 13.75;303;10; 31A4D8D03962529B0B0BDDB76FE2018871A7A94185EA6531A40A
2022-05-13 06:00; 56.438280; -61.473600; 3174.00; 3174.00; 1022.9; -0.8; 0.0; -0.7; 79.0; 2.00; 2.00; 298.4112; 298.7631; 357.8823; 1.4; 4.5; 13.75;30;29; 3198D82F7962519E0808D4351FE6028871A7A941860A0A31981D
2022-05-13 06:00; 56.438280; -61.473600; 3174.00; 3174.00; 1022.9; -0.8; 0.0; -0.7; 79.0; 2.00; 2.00; 298.4112; 298.7631; 357.8823; 1.4; 4.5; 13.75;30;29; 3198D82F7962519E0808D4351FE6028871A7A941860A0A31981D
2022-05-13 03:00; 56.438280; -61.473600; 3171.00; 3171.00; 1023.7; 1.0; 0.1; 0.5; 75.5; 4.25; 4.25; 306.1530; 306.1530; 357.5304; 1.3; 4.5; 13.75;30;12; 318CD93099665D971111D9B66FE2018871A7A941860A0A318C0C
2022-05-13 00:00; 56.438100; -61.473600; 3168.00; 3168.00; 1022.7; 1.7; 0.2; 1.3; 71.5; 5.25; 5.25; 301.2264; 301.2264; 357.1785; 1.4; 4.5; 13.75;30;31; 3180D7F1096A658F1515D6358FDE028871A7A541860A0A31801F
2022-05-12 21:00; 56.438280; -61.473600; 3165.00; 3165.00; 1021.0; 1.3; 0.3; 2.8; 68.5; 10.75; 10.75; 306.8568; 307.2087; 357.5304; 1.9; 5.2; 13.75;30;11; 3174D5D0C96E74892B2BDA369FE2078A31A7A941860A0A31740B
2022-05-12 18:00; 56.438100; -61.473600; 3162.00; 3162.00; 1019.7; 0.7; 0.4; 3.5; 69.0; 7.00; 7.00; 309.3201; 309.3201; 356.8266; 0.5; 4.3; 13.75;30;30; 3168D43069727B8A1C1CDBF6FFD9F987F1A7A541860A0A31681E
2022-05-12 15:00; 56.438100; -61.473600; 3159.00; 3159.00; 1019.0; 3.6; 0.3; 3.5; 65.5; 7.00; 7.00; 315.3024; 315.3024; 355.7709; 1.3; 3.5; 13.75;30;28; 315CD352396E7B831C1CE0380FCE0185F1A7A541860A0A315C1C
2022-05-12 12:00; 56.438100; -61.473600; 3156.00; 3156.00; 1015.4; 4.2; 0.2; 2.5; 68.5; 11.75; 11.75; 329.0265; 329.0265; 354.0114; 3.0; 3.4; 13.75;30;29; 3150CED2996A71892F2FE9FA7FBA1285B1A7A541860A0A31501D
2022-05-12 09:00; 56.438280; -61.473780; 3153.00; 3153.00; 1011.2; 2.7; 0.2; 2.5; 70.0; 13.50; 13.50; 317.7657; 317.7657; 354.3633; 3.3; 3.8; 13.75;30;9; 3144C991A96A718C3636E1F87FBE1586B1A7A94185EA0A314409
2022-05-12 06:00; 56.438100; -61.473600; 3150.00; 3150.00; 1008.5; 4.6; 0.3; 2.7; 80.0; 10.00; 10.00; 316.0062; 315.6543; 353.6595; 3.5; 3.8; 13.75;30;30; 3138C632D96E73A02828E0B81FB61786B1A7A541860A0A31381E
2022-05-12 03:00; 56.438100; -61.473600; 3147.00; 3147.00; 1003.9; 0.9; 0.3; 3.9; 72.0; 14.25; 14.25; 305.4492; 305.4492; 354.0114; 3.3; 4.1; 13.75;30;11; 312CC070896E7F903939D9364FBA158771A7A541860A0A312C0B
2022-05-12 00:00; 56.438280; -61.473600; 3144.00; 3144.00; 1003.0; 2.5; 0.0; 4.4; 69.0; 15.75; 15.50; 305.0973; 305.0973; 353.3076; 3.7; 4.0; 13.75;30;30; 3120BF518962848A3F3ED8F63FB2198731A7A941860A0A31201E
2022-05-11 21:00; 56.438280; -61.473600; 3141.00; 3141.00; 1000.5; 1.3; -0.1; 6.7; 69.5; 16.25; 16.25; 295.9479; 295.9479; 353.3076; 2.5; 1.5; 13.75;30;28; 3114BC30C95E9B8B4141D2749FB20D80F1A7A941860A0A31141C
2022-05-11 18:00; 56.438100; -61.473600; 3138.00; 3138.00; 999.2; -3.9; -0.2; 8.8; 67.0; 10.25; 10.25; 290.6694; 290.3175; 354.0114; 0.9; 1.1; 13.75;30;31; 3108BA8D895AB0862929CEB39FB9FD7FF1A7A541860A0A31081F
2022-05-11 15:00; 56.438100; -61.473600; 3135.00; 3135.00; 1003.1; -5.0; -0.4; 7.2; 79.0; 8.50; 8.25; 285.3909; 285.0390; 353.6595; 0.8; 0.8; 13.75;30;31; 30FCBF6CD952A09E2221CAF2AFB5FC7F31A7A541860A0A30FC1F
2022-05-11 12:00; 56.438100; -61.473600; 3132.00; 3132.00; 1008.1; -1.3; -0.5; 6.0; 91.0; 2.25; 2.25; 266.0364; 265.6845; 353.6595; 0.7; 0.7; 13.75;30;28; 30F0C5AF294E94B60909BD2F3FB5FB7EF1A7A541860A0A30F01C
2022-05-11 09:00; 56.438280; -61.473600; 3129.00; 3129.00; 1009.5; -1.6; -0.5; 11.0; 46.5; 1.25; 1.25; 293.4846; 293.4846; 353.6595; 0.7; 0.7; 13.75;30;30; 30E4C76EF94EC65D0505D0B42FB5FB7EF1A7A941860A0A30E41E
2022-05-11 06:00; 56.438100; -61.473600; 3126.00; 3126.00; 1011.1; -2.6; -0.5; 9.1; 50.5; 0.50; 0.25; 325.8594; 305.4492; 353.6595; 0.5; 0.7; 13.75;30;30; 30D8C96E594EB3650201E7B64FB5F97EF1A7A541860A0A30D81E
2022-05-11 03:00; 56.438280; -61.473600; 3123.00; 3123.00; 1013.7; -2.7; -0.5; 6.0; 67.5; 2.75; 2.75; 2.1114; 2.1114; 354.0114; 0.4; 0.7; 13.75;30;12; 30CCCCAE494E94870B0B01806FB9F87EF1A7A941860A0A30CC0C
2022-05-11 00:00; 56.438280; -61.473600; 3120.00; 3120.00; 1016.4; -1.6; -0.6; 9.2; 48.5; 0.50; 0.50; 106.2738; 107.6814; 354.0114; 0.4; 0.7; 13.75;30;31; 30C0D00EF94AB46102024B932FB9F87EF1A7A941860A0A30C01F
2022-05-10 21:00; 56.438280; -61.473600; 3117.00; 3117.00; 1018.0; -1.9; -0.6; 8.1; 56.0; 2.75; 2.75; 324.4518; 324.0999; 353.6595; 0.4; 0.7; 13.75;30;10; 30B4D20EC94AA9700B0BE6B99FB5F87EF1A7A941860A0A30B40A
2022-05-10 18:00; 56.438100; -61.473600; 3114.00; 3114.00; 1020.0; -1.5; -0.6; 8.6; 54.5; 2.50; 2.50; 281.5200; 281.1681; 354.3633; 0.4; 0.6; 13.75;30;32; 30A8D48F094AAE6D0A0AC831FFBDF87EB1A7A541860A0A30A820
2022-05-10 15:00; 56.438100; -61.473600; 3111.00; 3111.00; 1021.4; -1.5; -0.8; 7.6; 58.5; 8.50; 8.50; 289.2618; 288.9099; 354.0114; 0.4; 0.6; 13.75;30;32; 309CD64F0942A4752222CDB35FB9F87EB1A7A541860A0A309C20
2022-05-10 12:00; 56.438100; -61.473600; 3108.00; 3108.00; 1022.9; -0.6; -0.9; 7.6; 54.0; 6.00; 6.00; 306.5049; 306.1530; 353.6595; 0.4; 0.5; 13.75;30;29; 3090D82F993EA46C1818D9F66FB5F87E71A7A541860A0A30901D
2022-05-10 09:00; 56.438280; -61.473780; 3105.00; 3105.00; 1023.5; -0.1; -1.0; 4.5; 68.0; 3.25; 3.00; 357.1785; 357.8823; 354.0114; 0.4; 0.6; 13.75;30;14; 3084D8EFE93A85880D0CFDFF9FB9F87EB1A7A94185EA0A30840E
2022-05-10 06:00; 56.438100; -61.473600; 3102.00; 3102.00; 1023.5; -1.0; -1.0; 2.5; 72.5; 2.25; 2.25; 320.5809; 320.5809; 354.0114; 0.4; 0.6; 13.75;30;29; 3078D8EF593A71910909E3F8FFB9F87EB1A7A541860A0A30781D
2022-05-10 03:00; 56.438280; -61.473600; 3099.00; 3099.00; 1024.6; -0.8; -0.9; 0.6; 80.5; 0.75; 0.75; 104.8662; 105.5700; 354.3633; 0.4; 0.6; 13.75;30;7; 306CDA4F793E5EA103034A92CFBDF87EB1A7A941860A0A306C07
2022-05-10 00:00; 56.438100; -61.473600; 3096.00; 3096.00; 1025.4; 0.0; -0.9; 5.3; 57.5; 0.25; 0.25; 101.6991; 78.8256; 354.3633; 0.4; 0.6; 13.75;30;30; 3060DB4FF93E8D730101484E0FBDF87EB1A7A541860A0A30601E
2022-05-09 21:00; 56.438280; -61.473780; 3093.00; 3093.00; 1025.4; 0.3; -0.8; 8.7; 51.0; 0.50; 0.50; 307.9125; 320.9328; 354.3633; 0.4; 0.6; 13.75;30;14; 3054DB502942AF660202DAF90FBDF87EB1A7A94185EA0A30540E
2022-05-09 18:00; 56.438100; -61.473600; 3090.00; 3090.00; 1025.1; 0.4; -0.9; 7.2; 55.0; 3.75; 3.75; 286.4466; 286.7985; 354.3633; 0.4; 0.6; 13.75;30;30; 3048DAF0393EA06E0F0FCBB2FFBDF87EB1A7A541860A0A30481E
2022-05-09 15:00; 56.438100; -61.473600; 3087.00; 3087.00; 1024.7; -0.1; -1.0; 5.3; 64.5; 3.50; 3.25; 320.2290; 320.2290; 354.0114; 0.4; 0.7; 13.75;30;29; 303CDA6FE93A8D810E0DE3B8EFB9F87EF1A7A541860A0A303C1D
2022-05-09 12:00; 56.438100; -61.473600; 3084.00; 3084.00; 1024.8; 0.3; -1.1; 3.0; 76.5; 2.75; 2.75; 315.3024; 315.3024; 354.0114; 0.3; 0.7; 13.75;30;31; 3030DA90293676990B0BE0380FB9F77EF1A7A541860A0A30301F
2022-05-09 09:00; 56.438100; -61.473600; 3081.00; 3081.00; 1024.4; 1.1; -1.2; -0.9; 74.0; 1.25; 1.00; 281.1681; 286.4466; 354.0114; 0.3; 0.6; 13.75;30;13; 3024DA10A9324F940504C7F2EFB9F77EB1A7A541860A0A30240D
2022-05-09 06:00; 56.438100; -61.473600; 3078.00; 3078.00; 1023.3; 0.3; -1.2; -4.6; 84.5; 0.50; 0.50; 222.7527; 223.1046; 354.3633; 0.3; 0.7; 13.75;30;30; 3018D8B029322AA902029E67AFBDF77EF1A7A541860A0A30181E
2022-05-09 03:00; 56.438280; -61.473600; 3075.00; 3075.00; 1023.0; 0.4; -1.1; -3.4; 86.5; 1.75; 1.75; 230.8464; 230.8464; 354.0114; 0.3; 0.7; 13.75;30;11; 300CD850393636AD0707A4290FB9F77EF1A7A941860A0A300C0B
2022-05-09 00:00; 56.438280; -61.473600; 3072.00; 3072.00; 1022.6; 1.3; -1.0; -1.0; 84.0; 2.75; 2.75; 282.5757; 282.5757; 354.0114; 0.3; 0.6; 13.75;30;29; 3000D7D0C93A4EA80B0BC8F23FB9F77EB1A7A941860A0A30001D
2022-05-08 21:00; 56.438280; -61.473600; 3069.00; 3069.00; 1021.2; 0.8; -1.0; 3.2; 65.5; 1.25; 1.25; 295.2441; 295.2441; 354.0114; 0.3; 0.7; 13.75;30;15; 2FF4D610793A78830505D1F47FB9F77EF1A7A941860A0A2FF40F
2022-05-08 18:00; 56.438100; -61.473600; 3066.00; 3066.00; 1020.4; 0.5; -1.1; 2.9; 59.5; 3.50; 3.50; 313.5429; 313.5429; 354.3633; 0.3; 0.7; 13.75;30;28; 2FE8D510493675770E0EDEF7BFBDF77EF1A7A541860A0A2FE81C
2022-05-08 15:00; 56.438280; -61.473600; 3063.00; 3063.00; 1019.9; 0.2; -1.2; 2.0; 55.0; 3.50; 3.50; 310.3758; 310.3758; 354.3633; 0.3; 0.7; 13.75;30;30; 2FDCD47019326C6E0E0EDCB72FBDF77EF1A7A941860A0A2FDC1E
2022-05-08 12:00; 56.438100; -61.473600; 3060.00; 3060.00; 1019.7; 1.0; -1.3; -1.7; 55.5; 3.00; 3.00; 299.8188; 300.1707; 353.6595; 0.3; 0.6; 13.75;30;29; 2FD0D430992E476F0C0CD5355FB5F77EB1A7A541860A0A2FD01D
2022-05-08 09:00; 56.438280; -61.473600; 3057.00; 3057.00; 1018.7; 0.7; -1.3; -6.9; 69.5; 2.25; 2.25; 299.8188; 300.1707; 354.3633; 0.3; 0.7; 13.75;30;15; 2FC4D2F0692E138B0909D5355FBDF77EF1A7A941860A0A2FC40F
2022-05-08 06:00; 56.438280; -61.473600; 3054.00; 3054.00; 1018.0; 0.1; -1.3; -8.4; 77.5; 2.25; 2.25; 315.3024; 315.6543; 354.0114; 0.3; 0.7; 13.75;30;30; 2FB8D210092E049B0909E0381FB9F77EF1A7A941860A0A2FB81E
2022-05-08 03:00; 56.438280; -61.473600; 3051.00; 3051.00; 1017.8; 0.1; -1.2; -7.9; 93.5; 1.25; 1.25; 306.5049; 306.1530; 354.3633; 0.3; 0.7; 13.75;30;7; 2FACD1D0093209BB0505D9F66FBDF77EF1A7A941860A0A2FAC07
2022-05-08 00:00; 56.438100; -61.473600; 3048.00; 3048.00; 1017.8; 1.5; -1.1; -4.9; 87.5; 1.75; 1.75; 174.1905; 174.1905; 354.0114; 0.3; 0.6; 13.75;30;31; 2FA0D1D0E93627AF07077BDEFFB9F77EB1A7A541860A0A2FA01F
2022-05-07 21:00; 56.438280; -61.473600; 3045.00; 3045.00; 1016.3; -0.2; -1.1; 0.7; 69.5; 3.00; 3.00; 310.0239; 310.0239; 354.7152; 0.3; 0.7; 13.75;30;27; 2F94CFEFD9365F8B0C0CDC771FC1F77EF1A7A941860A0A2F941B
2022-05-07 18:00; 56.438100; -61.473600; 3042.00; 3042.00; 1016.4; -0.8; -1.1; 0.8; 56.0; 4.25; 4.25; 301.5783; 301.5783; 354.3633; 0.3; 0.7; 13.75;30;48; 2F88D00F793660701111D6759FBDF77EF1A7A541860A0A2F8830
2022-05-07 15:00; 56.438100; -61.473600; 3039.00; 3039.00; 1017.2; -0.2; -1.2; -1.0; 57.0; 3.50; 3.50; 305.0973; 305.0973; 354.3633; 0.4; 0.7; 13.75;30;29; 2F7CD10FD9324E720E0ED8F63FBDF87EF1A7A541860A0A2F7C1D
2022-05-07 12:00; 56.438100; -61.473600; 3036.00; 3036.00; 1017.4; 0.7; -1.3; -5.4; 68.0; 4.25; 4.25; 321.6366; 321.6366; 353.6595; 0.3; 0.7; 13.75;30;31; 2F70D150692E22881111E4B92FB5F77EF1A7A541860A0A2F701F
2022-05-07 09:00; 56.438280; -61.473600; 3033.00; 3033.00; 1016.7; 0.5; -1.3; -8.7; 74.5; 3.75; 3.75; 332.5455; 332.5455; 354.3633; 0.3; 0.7; 13.75;30;13; 2F64D070492E01950F0FEC7B1FBDF77EF1A7A941860A0A2F640D
2022-05-07 06:00; 56.438280; -61.473600; 3030.00; 3030.00; 1016.2; 0.1; -1.2; -9.7; 81.5; 2.25; 2.25; 309.6720; 309.6720; 354.3633; 0.3; 0.7; 13.75;30;30; 2F58CFD00931F7A30909DC370FBDF77EF1A7A941860A0A2F581E
2022-05-07 03:00; 56.438280; -61.473600; 3027.00; 3027.00; 1016.1; -0.1; -1.2; -7.8; 74.0; 2.00; 2.00; 271.6668; 271.6668; 354.3633; 0.3; 0.7; 13.75;30;17; 2F4CCFAFE9320A940808C1304FBDF77EF1A7A941860A0A2F4C11
2022-05-07 00:00; 56.438280; -61.473600; 3024.00; 3024.00; 1016.3; 1.1; -1.1; -2.9; 60.5; 3.50; 3.50; 16.1874; 15.4836; 354.0114; 0.3; 0.7; 13.75;30;29; 2F40CFF0A9363B790E0E0B82CFB9F77EF1A7A941860A0A2F401D
2022-05-06 21:00; 56.438280; -61.473780; 3021.00; 3021.00; 1015.2; 0.0; -1.1; -0.9; 57.5; 6.75; 6.75; 15.8355; 15.8355; 354.3633; 0.4; 0.6; 13.75;30;9; 2F34CE8FF9364F731B1B0B42DFBDF87EB1A7A94185EA0A2F3409
2022-05-06 18:00; 56.438100; -61.473600; 3018.00; 3018.00; 1015.2; 0.2; -1.1; -1.6; 61.0; 5.25; 5.25; 11.9646; 11.6127; 354.3633; 0.4; 0.6; 13.75;30;28; 2F28CE901936487A151508821FBDF87EB1A7A541860A0A2F281C
2022-05-06 15:00; 56.438100; -61.473600; 3015.00; 3015.00; 1015.0; 0.7; -1.2; -2.8; 64.0; 5.00; 5.00; 30.9672; 30.9672; 354.0114; 0.3; 0.6; 13.75;30;30; 2F1CCE5069323C80141416058FB9F77EB1A7A541860A0A2F1C1E
2022-05-06 12:00; 56.438100; -61.473600; 3012.00; 3012.00; 1014.3; 0.8; -1.2; -5.3; 73.0; 3.50; 3.25; 338.1759; 337.8240; 353.6595; 0.3; 0.7; 13.75;30;29; 2F10CD70793223920E0DF07C0FB5F77EF1A7A541860A0A2F101D
2022-05-06 09:00; 56.438280; -61.473960; 3009.00; 3009.00; 1013.5; 1.1; -1.2; -7.9; 80.5; 2.75; 2.25; 356.4747; 356.4747; 354.0114; 0.4; 0.7; 13.75;30;13; 2F04CC70A93209A10B09FD7F5FB9F87EF1A7A94185CA0A2F040D
2022-05-06 06:00; 56.438100; -61.473600; 3006.00; 3006.00; 1012.3; 0.9; -1.2; -6.3; 77.0; 4.25; 4.25; 352.9557; 352.6038; 354.0114; 0.3; 0.7; 13.75;30;30; 2EF8CAF08932199A1111FAFEAFB9F77EF1A7A541860A0A2EF81E
2022-05-06 03:00; 56.438280; -61.473600; 3003.00; 3003.00; 1011.4; 1.2; -1.1; -5.9; 76.0; 7.00; 4.75; 11.2608; 11.9646; 354.3633; 0.4; 0.7; 13.75;30;11; 2EECC9D0B9361D981C1308022FBDF87EF1A7A941860A0A2EEC0B
2022-05-06 00:00; 56.438100; -61.473600; 3000.00; 3000.00; 1010.2; 2.5; -1.1; -4.5; 86.5; 6.50; 5.00; 346.9734; 346.9734; 354.0114; 0.3; 0.7; 13.75;30;30; 2EE0C85189362BAD1A14F6BDAFB9F77EF1A7A541860A0A2EE01E
2022-05-05 21:00; 56.438280; -61.473600; 2997.00; 2997.00; 1007.7; 3.1; -1.1; -2.9; 84.5; 8.75; 8.75; 359.2899; 358.9380; 354.0114; 0.4; 0.6; 13.75;30;29; 2ED4C531E9363BA92323FF7FCFB9F87EB1A7A941860A0A2ED41D
2022-05-05 18:00; 56.438100; -61.473600; 2994.00; 2994.00; 1004.6; 3.5; -1.1; -1.1; 83.5; 10.75; 10.25; 355.4190; 354.7152; 354.3633; 0.4; 0.7; 13.75;30;29; 2EC8C15229364DA72B29FCBF0FBDF87EF1A7A541860A0A2EC81D
2022-05-05 15:00; 56.438280; -61.473600; 2991.00; 2991.00; 1001.1; 2.5; -1.1; -0.2; 84.0; 10.00; 10.00; 9.5013; 9.1494; 354.3633; 0.4; 0.7; 13.75;30;7; 2EBCBCF1893656A8282806C1AFBDF87EF1A7A941860A0A2EBC07
2022-05-05 12:00; 56.438100; -61.473600; 2988.00; 2988.00; 998.6; 0.8; -1.1; 0.5; 85.0; 7.00; 4.50; 329.3784; 328.6746; 354.0114; 0.4; 0.7; 13.75;30;28; 2EB0B9D079365DAA1C12EA3A6FB9F87EF1A7A541860A0A2EB01C
2022-05-05 09:00; 56.438280; -61.473780; 2985.00; 2985.00; 997.7; -0.6; -1.1; -0.3; 97.0; 5.00; 5.00; 311.7834; 312.1353; 354.0114; 0.4; 0.7; 13.75;30;12; 2EA4B8AF993655C21414DDB77FB9F87EF1A7A94185EA0A2EA40C
2022-05-05 06:00; 56.438100; -61.473600; 2982.00; 2982.00; 998.3; -0.7; -1.1; -0.9; 98.5; 5.00; 5.00; 321.6366; 321.6366; 354.0114; 0.3; 0.7; 13.75;30;29; 2E98B96F89364FC51414E4B92FB9F77EF1A7A541860A0A2E981D
2022-05-05 03:00; 56.438280; -61.473600; 2979.00; 2979.00; 999.1; -2.6; -1.1; -0.7; 96.5; 2.75; 2.75; 26.7444; 26.7444; 353.6595; 0.4; 0.7; 13.75;30;12; 2E8CBA6E593651C10B0B1304CFB5F87EF1A7A941860A0A2E8C0C
2022-05-05 00:00; 56.438280; -61.473600; 2976.00; 2976.00; 1001.6; -2.8; -1.1; 0.0; 93.5; 1.75; 1.75; 100.2915; 100.2915; 353.6595; 0.4; 0.7; 13.75;30;30; 2E80BD8E393658BB07074751DFB5F87EF1A7A941860A0A2E801E
2022-05-04 21:00; 56.438280; -61.473420; 2973.00; 2973.00; 1004.4; -3.4; -1.1; 0.1; 95.5; 2.75; 2.75; 106.6257; 106.6257; 354.3633; 0.4; 0.8; 13.75;30;14; 2E74C10DD93659BF0B0B4BD2FFBDF87F31A7A941862A0A2E740E
2022-05-04 18:00; 56.438100; -61.473600; 2970.00; 2970.00; 1007.9; -2.9; -1.1; 0.2; 94.0; 2.50; 2.50; 129.1473; 129.1473; 354.0114; 0.4; 0.8; 13.75;30;30; 2E68C56E29365ABC0A0A5BD6FFB9F87F31A7A541860A0A2E681E
2022-05-04 15:00; 56.438280; -61.473600; 2967.00; 2967.00; 1010.7; -3.5; -1.1; 0.5; 91.5; 3.75; 3.75; 96.4206; 96.4206; 354.0114; 0.4; 0.9; 13.75;30;18; 2E5CC8EDC9365DB70F0F44912FB9F87F71A7A941860A0A2E5C12
2022-05-04 12:00; 56.438100; -61.473600; 2964.00; 2964.00; 1014.2; -2.0; -1.2; -0.6; 92.0; 4.75; 4.50; 59.8230; 58.7673; 354.0114; 0.4; 0.9; 13.75;30;31; 2E50CD4EB93252B813122A8A7FB9F87F71A7A541860A0A2E501F
2022-05-04 09:00; 56.438280; -61.473600; 2961.00; 2961.00; 1016.2; -2.1; -1.3; -1.2; 90.5; 5.50; 5.50; 49.6179; 49.6179; 354.0114; 0.4; 0.9; 13.75;30;7; 2E44CFCEA92E4CB516162348DFB9F87F71A7A941860A0A2E4407
2022-05-04 06:00; 56.438100; -61.473600; 2958.00; 2958.00; 1018.2; -1.1; -1.3; -1.4; 89.5; 3.50; 3.50; 39.7647; 39.7647; 354.0114; 0.4; 0.9; 13.75;30;28; 2E38D24F492E4AB30E0E1C471FB9F87F71A7A541860A0A2E381C
2022-05-04 03:00; 56.438280; -61.473600; 2955.00; 2955.00; 1019.3; -0.4; -1.2; -1.1; 89.0; 5.25; 5.25; 54.8964; 52.7850; 354.0114; 0.4; 0.9; 13.75;30;11; 2E2CD3AFB9324DB2151527096FB9F87F71A7A941860A0A2E2C0B
2022-05-04 00:00; 56.438280; -61.473600; 2952.00; 2952.00; 1019.7; 1.5; -1.2; -1.1; 88.5; 8.75; 8.75; 53.8407; 53.8407; 353.6595; 0.4; 0.9; 13.75;30;29; 2E20D430E9324DB1232326499FB5F87F71A7A941860A0A2E201D
2022-05-03 21:00; 56.438280; -61.473960; 2949.00; 2949.00; 1018.2; -1.2; -1.2; 2.3; 78.5; 5.25; 5.25; 55.2483; 54.8964; 354.3633; 0.4; 1.0; 13.75;30;9; 2E14D24F39326F9D15152749CFBDF87FB1A7A94185CA0A2E1409
2022-05-03 18:00; 56.438100; -61.473600; 2946.00; 2946.00; 1019.4; -1.6; -1.2; 3.9; 74.0; 2.00; 2.00; 159.7626; 160.1145; 354.0114; 0.4; 1.0; 13.75;30;30; 2E08D3CEF9327F940808719C7FB9F87FB1A7A541860A0A2E081E
2022-05-03 15:00; 56.438280; -61.473600; 2943.00; 2943.00; 1021.0; -1.1; -1.3; 5.3; 67.5; 1.25; 1.25; 136.5372; 136.5372; 354.3633; 0.3; 1.0; 13.75;30;11; 2DFCD5CF492E8D87050561184FBDF77FB1A7A941860A0A2DFC0B
2022-05-03 12:00; 56.438100; -61.473600; 2940.00; 2940.00; 1022.1; -0.5; -1.4; -0.5; 74.5; 1.00; 1.00; 205.1577; 205.1577; 354.0114; 0.4; 1.0; 13.75;30;30; 2DF0D72FA92A5395040491E47FB9F87FB1A7A541860A0A2DF01E
2022-05-03 09:00; 56.438100; -61.473600; 2937.00; 2937.00; 1022.7; -0.8; -1.4; -7.9; 85.5; 0.00; 0.00; 216.4185; 0.0000; 353.6595; 0.3; 1.0; 13.75;30;11; 2DE4D7EF792A09AB000099C00FB5F77FB1A7A541860A0A2DE40B
2022-05-03 06:00; 56.438100; -61.473600; 2934.00; 2934.00; 1023.5; -1.1; -1.3; -6.1; 83.5; 0.50; 0.50; 218.5299; 219.2337; 354.3633; 0.4; 1.0; 13.75;30;31; 2DD8D8EF492E1BA702029B66FFBDF87FB1A7A541860A0A2DD81F
2022-05-03 03:00; 56.438100; -61.473600; 2931.00; 2931.00; 1024.7; -1.0; -1.2; -2.8; 81.0; 0.00; 0.00; 356.1228; 0.0000; 354.0114; 0.4; 1.0; 13.75;30;6; 2DCCDA6F59323CA20000FD000FB9F87FB1A7A541860A0A2DCC06
2022-05-03 00:00; 56.438100; -61.473600; 2928.00; 2928.00; 1025.7; -0.5; -1.2; -0.2; 75.5; 2.00; 2.00; 138.6486; 138.6486; 353.6595; 0.4; 1.0; 13.75;30;31; 2DC0DBAFA932569708086298AFB5F87FB1A7A541860A0A2DC01F
2022-05-02 21:00; 56.438280; -61.473600; 2925.00; 2925.00; 1026.1; -1.0; -1.2; 1.8; 76.0; 3.00; 3.00; 146.7423; 146.3904; 354.0114; 0.3; 1.1; 13.75;30;11; 2DB4DC2F59326A980C0C685A0FB9F77FF1A7A941860A0A2DB40B
2022-05-02 18:00; 56.438100; -61.473600; 2922.00; 2922.00; 1027.1; -1.2; -1.2; 2.5; 75.5; 2.50; 2.50; 155.1879; 155.1879; 354.3633; 0.3; 1.1; 13.75;30;28; 2DA8DD6F393271970A0A6E5B9FBDF77FF1A7A541860A0A2DA81C
2022-05-02 15:00; 56.438280; -61.473600; 2919.00; 2919.00; 1028.3; -0.7; -1.3; 4.1; 59.5; 0.50; 0.50; 318.1176; 322.3404; 353.6595; 0.3; 1.1; 13.75;30;28; 2D9CDEEF892E81770202E2394FB5F77FF1A7A941860A0A2D9C1C
2022-05-02 12:00; 56.438100; -61.473600; 2916.00; 2916.00; 1029.0; 0.6; -1.4; -2.7; 74.5; 1.00; 1.00; 255.4794; 255.1275; 354.3633; 0.3; 1.1; 13.75;30;29; 2D90DFD0592A3D950404B5AD5FBDF77FF1A7A541860A0A2D901D
2022-05-02 09:00; 56.438100; -61.473420; 2913.00; 2913.00; 1028.4; 0.4; -1.4; -7.5; 83.0; 1.25; 1.25; 293.4846; 293.4846; 354.0114; 0.4; 1.1; 13.75;30;13; 2D84DF10392A0DA60505D0B42FB9F87FF1A7A541862A0A2D840D
2022-05-02 06:00; 56.438100; -61.473600; 2910.00; 2910.00; 1028.0; -0.4; -1.3; -9.9; 85.0; 1.25; 1.25; 229.7907; 229.7907; 354.0114; 0.3; 1.1; 13.75;30;30; 2D78DE8FB92DF5AA0505A368DFB9F77FF1A7A541860A0A2D781E
2022-05-02 03:00; 56.438100; -61.473600; 2907.00; 2907.00; 1028.4; -0.1; -1.2; -6.4; 80.5; 1.25; 1.25; 297.0036; 297.0036; 354.3633; 0.3; 1.1; 13.75;30;11; 2D6CDF0FE93218A10505D334CFBDF77FF1A7A541860A0A2D6C0B
2022-05-02 00:00; 56.438280; -61.473600; 2904.00; 2904.00; 1028.5; -0.2; -1.2; -1.7; 68.5; 4.25; 4.25; 49.2660; 49.2660; 354.0114; 0.3; 1.1; 13.75;30;29; 2D60DF2FD932478911112308CFB9F77FF1A7A941860A0A2D601D
2022-05-01 21:00; 56.438100; -61.473960; 2901.00; 2901.00; 1028.7; -0.5; -1.2; 0.5; 62.5; 3.50; 3.50; 59.1192; 59.1192; 354.0114; 0.4; 1.1; 13.75;42;8; 2D54DF6FA9325D7D0E0E2A0A8FB9F87FF1A7A54185CA0E2D5408
2022-05-01 18:00; 56.438100; -61.473600; 2898.00; 2898.00; 1029.2; -1.0; -1.2; 2.3; 49.5; 1.25; 1.00; 17.9469; 17.9469; 354.3633; 0.4; 1.1; 13.60;30;30; 2D48E00F59326F6305040CC33FBDF87FF1A7A54186098A2D481E
2022-05-01 15:00; 56.438100; -61.473600; 2895.00; 2895.00; 1030.2; -0.2; -1.2; -2.4; 65.5; 1.25; 1.25; 143.9271; 143.9271; 354.3633; 0.4; 1.1; 13.45;30;6; 2D3CE14FD9324083050566599FBDF87FF1A7A54186090A2D3C06
2022-05-01 14:15; 56.438100; -61.473420; 2894.25; 2894.25; 1030.4; -0.1; -1.3; -2.8; 66.5; 1.00; 1.00; 143.5752; 143.9271; 354.3633; 0.4; 1.1; 13.15;0;3; 2D39E18FE92E3C85040466199FBDF87FF1A7A5418628002D3903
2022-04-30 09:00; 56.438100; -61.473600; 2865.00; 2865.00; 1035.5; -0.4; -1.3; -5.7; 81.5; 4.25; 3.75; 50.6736; 54.1926; 353.6595; 0.4; 1.0; 13.75;30;11; 2CC4E7EFB92E1FA3110F2409AFB5F87FB1A7A541860A0A2CC40B
2022-04-30 06:00; 56.438100; -61.473600; 2862.00; 2862.00; 1036.0; -0.7; -1.3; -5.5; 81.5; 5.75; 5.50; 54.1926; 54.5445; 354.7152; 0.3; 1.1; 13.75;30;30; 2CB8E88F892E21A317162689BFC1F77FF1A7A541860A0A2CB81E
2022-04-30 03:00; 56.438280; -61.473600; 2859.00; 2859.00; 1036.6; 0.4; -1.3; -5.4; 81.0; 5.75; 5.75; 44.6913; 45.0432; 354.3633; 0.4; 1.0; 13.75;30;12; 2CACE950392E22A217171FC80FBDF87FB1A7A941860A0A2CAC0C
2022-04-30 00:00; 56.438280; -61.473600; 2856.00; 2856.00; 1036.2; 1.8; -1.2; -5.3; 80.5; 8.50; 8.50; 49.6179; 50.3217; 354.3633; 0.4; 1.1; 13.75;30;31; 2CA0E8D1193223A122222348FFBDF87FF1A7A941860A0A2CA01F
2022-04-29 21:00; 56.438100; -61.473960; 2853.00; 2853.00; 1034.5; 1.7; -1.2; -4.3; 80.0; 8.75; 8.75; 55.6002; 55.6002; 354.3633; 0.4; 1.1; 13.75;30;9; 2C94E6B109322DA023232789EFBDF87FF1A7A54185CA0A2C9409
2022-04-29 18:00; 56.438100; -61.473600; 2850.00; 2850.00; 1032.8; 1.5; -1.2; -3.3; 75.5; 9.50; 9.50; 46.8027; 46.8027; 354.3633; 0.4; 1.0; 13.75;30;31; 2C88E490E9323797262621485FBDF87FB1A7A541860A0A2C881F
2022-04-29 15:00; 56.438100; -61.473600; 2847.00; 2847.00; 1031.2; 2.0; -1.3; -3.3; 79.5; 9.50; 9.50; 48.2103; 47.8584; 354.3633; 0.4; 1.1; 13.75;30;7; 2C7CE291392E379F262622488FBDF87FF1A7A541860A0A2C7C07
2022-04-29 12:00; 56.438100; -61.473600; 2844.00; 2844.00; 1029.3; 3.1; -1.4; -4.1; 60.5; 4.75; 4.50; 354.3633; 354.7152; 354.0114; 0.3; 1.0; 13.75;30;29; 2C70E031E92A2F791312FBFF0FB9F77FB1A7A541860A0A2C701D
2022-04-29 09:00; 56.438100; -61.473420; 2841.00; 2841.00; 1026.2; 2.6; -1.4; -6.7; 72.5; 3.50; 3.50; 334.3050; 334.3050; 353.6595; 0.4; 1.0; 13.75;30;12; 2C64DC51992A15910E0EEDBB6FB5F87FB1A7A541862A0A2C640C
2022-04-29 06:00; 56.438100; -61.473600; 2838.00; 2838.00; 1023.5; 1.2; -1.4; -7.8; 75.0; 3.00; 3.00; 321.6366; 321.6366; 354.0114; 0.4; 1.0; 13.75;30;30; 2C58D8F0B92A0A960C0CE4B92FB9F87FB1A7A541860A0A2C581E
2022-04-29 03:00; 56.438100; -61.473600; 2835.00; 2835.00; 1022.3; 1.4; -1.3; -7.2; 74.0; 2.50; 2.50; 299.4669; 299.8188; 354.0114; 0.4; 1.0; 13.75;30;6; 2C4CD770D92E10940A0AD4F54FB9F87FB1A7A541860A0A2C4C06
2022-04-29 00:00; 56.438280; -61.473600; 2832.00; 2832.00; 1020.9; 1.4; -1.2; -5.4; 72.5; 1.25; 1.25; 223.4565; 223.1046; 354.0114; 0.4; 1.0; 13.75;30;28; 2C40D5B0D932229105059EE7AFB9F87FB1A7A941860A0A2C401C
2022-04-28 21:00; 56.438280; -61.473780; 2829.00; 2829.00; 1019.6; 0.0; -1.2; -1.6; 67.5; 4.00; 4.00; 317.4138; 317.0619; 354.0114; 0.4; 1.0; 13.75;30;12; 2C34D40FF93248871010E1B85FB9F87FB1A7A94185EA0A2C340C
2022-04-28 18:00; 56.438100; -61.473600; 2826.00; 2826.00; 1019.5; -1.3; -1.2; -0.1; 58.5; 1.00; 1.00; 201.2868; 200.5830; 354.3633; 0.4; 1.0; 13.75;30;29; 2C28D3EF2932577504048F23AFBDF87FB1A7A541860A0A2C281D
2022-04-28 15:00; 56.438280; -61.473600; 2823.00; 2823.00; 1020.8; 0.2; -1.3; -2.8; 67.0; 2.00; 2.00; 313.1910; 312.8391; 354.3633; 0.4; 1.0; 13.75;30;29; 2C1CD590192E3C860808DEB79FBDF87FB1A7A941860A0A2C1C1D
2022-04-28 12:00; 56.438280; -61.473600; 2820.00; 2820.00; 1020.6; 0.3; -1.4; -6.9; 78.0; 3.75; 3.75; 312.8391; 312.8391; 354.0114; 0.4; 1.0; 13.75;30;31; 2C10D550292A139C0F0FDE779FB9F87FB1A7A941860A0A2C101F
2022-04-28 09:00; 56.438100; -61.473420; 2817.00; 2817.00; 1020.3; -0.2; -1.4; -10.6; 87.5; 1.25; 1.25; 317.4138; 317.4138; 354.0114; 0.4; 1.0; 13.75;30;11; 2C04D4EFD929EEAF0505E1B86FB9F87FB1A7A541862A0A2C040B
2022-04-28 06:00; 56.438280; -61.473600; 2814.00; 2814.00; 1020.5; 0.2; -1.4; -8.5; 87.5; 1.75; 1.75; 273.7782; 273.7782; 354.0114; 0.4; 1.0; 13.75;30;29; 2BF8D530192A03AF0707C2B0AFB9F87FB1A7A941860A0A2BF81D
2022-04-28 03:00; 56.438280; -61.473600; 2811.00; 2811.00; 1020.3; 0.3; -1.3; -9.8; 85.0; 2.25; 2.25; 255.8313; 255.4794; 354.0114; 0.5; 1.0; 13.75;30;7; 2BECD4F0292DF6AA0909B5ED6FB9F97FB1A7A941860A0A2BEC07
2022-04-28 00:00; 56.438280; -61.473600; 2808.00; 2808.00; 1020.0; 1.6; -1.2; -7.2; 78.5; 1.50; 1.50; 140.7600; 140.4081; 353.6595; 0.5; 1.0; 13.75;30;30; 2BE0D490F932109D06066418FFB5F97FB1A7A941860A0A2BE01E
2022-04-27 21:00; 56.438280; -61.473600; 2805.00; 2805.00; 1018.4; 0.8; -1.2; -3.7; 71.5; 2.50; 2.50; 119.6460; 119.9979; 354.3633; 0.5; 0.9; 13.75;30;11; 2BD4D2907932338F0A0A55155FBDF97F71A7A941860A0A2BD40B
2022-04-27 18:00; 56.438280; -61.473600; 2802.00; 2802.00; 1017.6; 0.3; -1.2; -2.6; 69.0; 2.25; 2.25; 99.5877; 98.1801; 354.7152; 0.5; 1.0; 13.75;30;30; 2BC8D19029323E8A090946D17FC1F97FB1A7A941860A0A2BC81E
2022-04-27 15:00; 56.438100; -61.473600; 2799.00; 2799.00; 1017.4; 1.7; -1.3; -2.7; 66.0; 0.75; 0.75; 35.1900; 36.2457; 354.7152; 0.6; 1.0; 13.75;30;28; 2BBCD151092E3D84030319067FC1FA7FB1A7A541860A0A2BBC1C
2022-04-27 12:00; 56.438280; -61.473600; 2796.00; 2796.00; 1015.6; 2.1; -1.3; -5.3; 79.0; 4.25; 4.25; 40.1166; 39.7647; 353.6595; 0.5; 1.0; 13.75;30;29; 2BB0CF11492E239E11111C871FB5F97FB1A7A941860A0A2BB01D
2022-04-27 09:00; 56.438100; -61.473600; 2793.00; 2793.00; 1013.5; 1.7; -1.3; -5.3; 77.5; 2.00; 2.00; 35.8938; 35.8938; 354.3633; 0.6; 1.0; 13.75;30;6; 2BA4CC71092E239B080819866FBDFA7FB1A7A541860A0A2BA406
2022-04-27 06:00; 56.438280; -61.473600; 2790.00; 2790.00; 1011.9; 2.0; -1.3; -6.0; 83.0; 8.00; 8.00; 57.7116; 58.0635; 354.3633; 0.6; 0.9; 13.75;30;28; 2B98CA71392E1CA62020290A5FBDFA7F71A7A941860A0A2B981C
2022-04-27 03:00; 56.438100; -61.473600; 2787.00; 2787.00; 1009.8; 1.6; -1.2; -4.6; 91.0; 7.75; 7.75; 55.6002; 55.6002; 354.0114; 0.7; 0.9; 13.75;30;12; 2B8CC7D0F9322AB61F1F2789EFB9FB7F71A7A541860A0A2B8C0C
2022-04-27 00:00; 56.438280; -61.473600; 2784.00; 2784.00; 1008.2; 1.8; -1.3; -4.2; 92.5; 8.75; 8.75; 60.8787; 60.8787; 354.0114; 0.7; 0.9; 13.75;30;29; 2B80C5D1192E2EB923232B4ADFB9FB7F71A7A941860A0A2B801D
2022-04-26 21:00; 56.438280; -61.473600; 2781.00; 2781.00; 1006.4; 0.3; -1.3; -2.0; 91.5; 9.75; 9.50; 71.0838; 69.3243; 354.0114; 0.7; 1.0; 13.75;30;29; 2B74C390292E44B72726328C5FB9FB7FB1A7A941860A0A2B741D
2022-04-26 18:00; 56.438100; -61.473600; 2778.00; 2778.00; 1006.1; -2.0; -1.3; 1.3; 94.5; 8.25; 8.25; 54.5445; 54.5445; 354.3633; 0.6; 1.1; 13.75;30;31; 2B68C32EB92E65BD212126C9BFBDFA7FF1A7A541860A0A2B681F
2022-04-26 15:00; 56.438280; -61.473600; 2775.00; 2775.00; 1008.1; -2.3; -1.3; 3.4; 96.0; 1.25; 1.25; 137.2410; 137.2410; 353.6595; 0.6; 1.2; 13.75;30;27; 2B5CC5AE892E7AC0050561986FB5FA8031A7A941860A0A2B5C1B
2022-04-26 12:00; 56.438280; -61.473600; 2772.00; 2772.00; 1010.4; -1.3; -1.3; 2.7; 97.0; 1.00; 1.00; 106.9776; 106.9776; 353.6595; 0.6; 1.2; 13.75;30;30; 2B50C88F292E73C204044C130FB5FA8031A7A941860A0A2B501E
2022-04-26 09:00; 56.438280; -61.473600; 2769.00; 2769.00; 1011.7; -2.3; -1.3; 4.1; 91.0; 2.50; 2.50; 249.8490; 249.8490; 354.0114; 0.5; 1.2; 13.75;30;28; 2B44CA2E892E81B60A0AB1AC6FB9F98031A7A941860A0A2B441C
2022-04-26 06:00; 56.438100; -61.473600; 2766.00; 2766.00; 1014.0; -3.2; -1.3; 2.5; 94.0; 4.00; 4.00; 155.1879; 155.1879; 354.0114; 0.6; 1.2; 13.75;30;31; 2B38CD0DF92E71BC10106E5B9FB9FA8031A7A541860A0A2B381F
2022-04-26 03:00; 56.438100; -61.473600; 2763.00; 2763.00; 1017.2; -3.3; -1.3; 2.3; 92.0; 3.00; 3.00; 129.1473; 129.1473; 354.0114; 0.5; 1.2; 13.75;30;6; 2B2CD10DE92E6FB80C0C5BD6FFB9F98031A7A541860A0A2B2C06
2022-04-26 00:00; 56.438280; -61.473600; 2760.00; 2760.00; 1020.5; -2.5; -1.3; 2.0; 92.5; 3.50; 3.50; 142.1676; 142.1676; 354.3633; 0.5; 1.3; 13.75;30;30; 2B20D52E692E6CB90E0E65194FBDF98071A7A941860A0A2B201E
2022-04-25 21:00; 56.438280; -61.473600; 2757.00; 2757.00; 1022.9; -2.6; -1.3; 1.5; 94.0; 6.00; 6.00; 171.0234; 171.0234; 353.6595; 0.5; 1.3; 13.75;30;30; 2B14D82E592E67BC1818799E6FB5F98071A7A941860A0A2B141E
2022-04-25 18:00; 56.438100; -61.473600; 2754.00; 2754.00; 1025.5; -3.6; -1.3; 2.1; 90.0; 4.50; 4.50; 117.5346; 116.8308; 354.0114; 0.5; 1.3; 13.75;30;28; 2B08DB6DB92E6DB412125394CFB9F98071A7A541860A0A2B081C
2022-04-25 15:00; 56.438100; -61.473600; 2751.00; 2751.00; 1029.1; -3.4; -1.4; 1.9; 88.0; 5.50; 5.50; 157.2993; 157.2993; 354.3633; 0.5; 1.3; 13.75;30;30; 2AFCDFEDD92A6BB016166FDBFFBDF98071A7A541860A0A2AFC1E
2022-04-25 12:00; 56.438280; -61.473600; 2748.00; 2748.00; 1032.5; -1.1; -1.4; -0.7; 94.0; 3.00; 3.00; 136.5372; 135.8334; 354.3633; 0.5; 1.3; 13.75;30;29; 2AF0E42F492A51BC0C0C61182FBDF98071A7A941860A0A2AF01D
2022-04-25 09:00; 56.438100; -61.473600; 2745.00; 2745.00; 1033.6; -1.1; -1.4; -2.9; 98.0; 2.25; 2.25; 147.7980; 147.4461; 354.0114; 0.5; 1.3; 13.75;30;12; 2AE4E58F492A3BC40909691A3FB9F98071A7A541860A0A2AE40C
2022-04-25 06:00; 56.438280; -61.473600; 2742.00; 2742.00; 1034.7; -2.5; -1.4; -3.1; 97.0; 2.00; 2.00; 174.5424; 174.5424; 354.0114; 0.5; 1.3; 13.75;30;30; 2AD8E6EE692A39C208087C1F0FB9F98071A7A941860A0A2AD81E
2022-04-25 03:00; 56.438100; -61.473600; 2739.00; 2739.00; 1037.2; -0.2; -1.4; -3.1; 95.0; 0.50; 0.50; 215.3628; 216.4185; 354.0114; 0.5; 1.3; 13.75;30;14; 2ACCEA0FD92A39BE020299267FB9F98071A7A541860A0A2ACC0E
2022-04-25 00:00; 56.438280; -61.473600; 2736.00; 2736.00; 1037.5; 0.4; -1.3; -2.6; 87.5; 1.00; 0.75; 359.2899; 0.7038; 354.0114; 0.5; 1.3; 13.75;30;29; 2AC0EA70392E3EAF0403FF402FB9F98071A7A941860A0A2AC01D
2022-04-24 21:00; 56.438280; -61.473600; 2733.00; 2733.00; 1037.1; 1.1; -1.3; -1.6; 88.0; 6.50; 6.50; 54.8964; 55.2483; 354.0114; 0.5; 1.3; 13.75;30;28; 2AB4E9F0A92E48B01A1A2709DFB9F98071A7A941860A0A2AB41C
2022-04-24 18:00; 56.438100; -61.473600; 2730.00; 2730.00; 1035.9; -0.3; -1.3; -1.4; 87.0; 8.25; 8.00; 63.6939; 63.6939; 354.0114; 0.5; 1.3; 13.75;30;31; 2AA8E86FC92E4AAE21202D4B5FB9F98071A7A541860A0A2AA81F
2022-04-24 15:00; 56.438100; -61.473600; 2727.00; 2727.00; 1036.2; 2.0; -1.4; -0.9; 81.0; 5.25; 5.25; 21.8178; 22.1697; 354.3633; 0.5; 1.3; 13.75;30;28; 2A9CE8D1392A4FA215150F83FFBDF98071A7A541860A0A2A9C1C
2022-04-24 12:00; 56.438280; -61.473600; 2724.00; 2724.00; 1034.2; 1.4; -1.4; -3.0; 89.5; 14.50; 14.50; 48.9141; 48.9141; 354.0114; 0.5; 1.2; 13.75;30;30; 2A90E650D92A3AB33A3A22C8BFB9F98031A7A941860A0A2A901E
2022-04-24 09:00; 56.438100; -61.473600; 2721.00; 2721.00; 1032.8; 2.4; -1.4; -2.3; 89.0; 10.25; 10.25; 32.7267; 32.3748; 354.3633; 0.5; 1.3; 13.75;30;11; 2A84E491792A41B229291745CFBDF98071A7A541860A0A2A840B
2022-04-24 06:00; 56.438100; -61.473600; 2718.00; 2718.00; 1030.4; 0.8; -1.4; -2.3; 86.5; 9.50; 9.25; 42.5799; 42.5799; 354.3633; 0.5; 1.3; 13.75;30;29; 2A78E190792A41AD26251E479FBDF98071A7A541860A0A2A781D
2022-04-24 03:00; 56.438100; -61.473600; 2715.00; 2715.00; 1029.6; 1.3; -1.3; -2.5; 90.0; 9.50; 9.25; 9.1494; 9.8532; 354.3633; 0.5; 1.3; 13.75;30;6; 2A6CE090C92E3FB426250681CFBDF98071A7A541860A0A2A6C06
2022-04-24 00:00; 56.438280; -61.473600; 2712.00; 2712.00; 1028.3; 2.9; -1.3; -1.7; 92.0; 11.50; 11.25; 28.5039; 28.5039; 354.3633; 0.5; 1.3; 13.75;30;28; 2A60DEF1C92E47B82E2D14451FBDF98071A7A941860A0A2A601C
2022-04-23 21:00; 56.438280; -61.473600; 2709.00; 2709.00; 1025.4; 2.7; -1.3; -0.5; 89.5; 14.25; 14.25; 35.1900; 35.1900; 354.0114; 0.5; 1.2; 13.75;30;28; 2A54DB51A92E53B3393919064FB9F98031A7A941860A0A2A541C
2022-04-23 18:00; 56.438100; -61.473600; 2706.00; 2706.00; 1022.7; 2.3; -1.3; -0.3; 91.0; 11.75; 11.50; 41.1723; 41.1723; 354.3633; 0.5; 1.2; 13.75;30;29; 2A48D7F1692E55B62F2E1D475FBDF98031A7A541860A0A2A481D
2022-04-23 15:00; 56.438100; -61.473600; 2703.00; 2703.00; 1020.3; 0.7; -1.4; 0.7; 91.0; 11.25; 11.25; 46.0989; 46.4508; 354.3633; 0.5; 1.2; 13.75;30;28; 2A3CD4F0692A5FB62D2D20C84FBDF98031A7A541860A0A2A3C1C
2022-04-23 12:00; 56.438280; -61.473600; 2700.00; 2700.00; 1019.7; 1.6; -1.4; -1.1; 92.0; 3.75; 3.75; 324.4518; 324.4518; 354.7152; 0.5; 1.3; 13.75;30;31; 2A30D430F92A4DB80F0FE6B9AFC1F98071A7A941860A0A2A301F
2022-04-23 09:00; 56.438280; -61.473600; 2697.00; 2697.00; 1018.1; 1.8; -1.4; -1.6; 91.5; 2.25; 2.25; 305.0973; 305.0973; 354.3633; 0.5; 1.3; 13.75;30;27; 2A24D231192A48B70909D8F63FBDF98071A7A941860A0A2A241B
2022-04-23 06:00; 56.438100; -61.473600; 2694.00; 2694.00; 1016.3; 0.9; -1.4; -1.9; 91.5; 3.50; 3.25; 340.6392; 340.9911; 354.0114; 0.5; 1.2; 13.75;30;30; 2A18CFF0892A45B70E0DF23C9FB9F98031A7A541860A0A2A181E
2022-04-23 03:00; 56.438100; -61.473600; 2691.00; 2691.00; 1015.4; 0.6; -1.4; -1.6; 90.0; 2.25; 2.25; 336.7683; 336.7683; 354.3633; 0.5; 1.3; 13.75;30;11; 2A0CCED0592A48B40909EF7BDFBDF98071A7A541860A0A2A0C0B
2022-04-23 00:00; 56.438280; -61.473600; 2688.00; 2688.00; 1014.8; 1.0; -1.4; -1.3; 94.0; 3.50; 3.50; 20.4102; 20.4102; 354.0114; 0.5; 1.2; 13.75;30;29; 2A00CE10992A4BBC0E0E0E83AFB9F98031A7A941860A0A2A001D
2022-04-22 21:00; 56.438280; -61.473600; 2685.00; 2685.00; 1013.8; 0.0; -1.4; -0.3; 96.0; 2.25; 2.25; 112.2561; 112.2561; 354.0114; 0.5; 1.3; 13.75;30;29; 29F4CCCFF92A55C009094FD3FFB9F98071A7A941860A0A29F41D
2022-04-22 18:00; 56.438100; -61.473600; 2682.00; 2682.00; 1013.8; -1.1; -1.4; -0.6; 92.0; 4.25; 4.25; 113.3118; 113.3118; 354.3633; 0.5; 1.3; 13.75;30;28; 29E8CCCF492A52B8111150942FBDF98071A7A541860A0A29E81C
2022-04-22 15:00; 56.438100; -61.473600; 2679.00; 2679.00; 1015.0; -1.8; -1.5; -1.5; 90.0; 4.50; 4.50; 124.5726; 124.2207; 354.3633; 0.5; 1.3; 13.75;30;11; 29DCCE4ED92649B4121258961FBDF98071A7A541860A0A29DC0B
2022-04-22 12:00; 56.438100; -61.473600; 2676.00; 2676.00; 1016.8; -1.6; -1.6; -2.8; 84.5; 5.50; 5.50; 118.5903; 118.5903; 354.3633; 0.5; 1.3; 13.75;30;29; 29D0D08EF9223CA9161654551FBDF98071A7A541860A0A29D01D
2022-04-22 09:00; 56.438280; -61.473600; 2673.00; 2673.00; 1018.4; -2.4; -1.6; -4.9; 87.5; 4.25; 4.25; 134.4258; 134.4258; 354.0114; 0.5; 1.3; 13.75;30;29; 29C4D28E792227AF11115F97EFB9F98071A7A941860A0A29C41D
2022-04-22 06:00; 56.438100; -61.473600; 2670.00; 2670.00; 1020.8; -1.9; -1.7; -9.4; 86.5; 1.25; 1.25; 91.1421; 91.1421; 354.3633; 0.5; 1.3; 13.75;30;31; 29B8D58EC91DFAAD050540D03FBDF98071A7A541860A0A29B81F
2022-04-22 03:00; 56.438280; -61.473600; 2667.00; 2667.00; 1022.7; -1.5; -1.6; -11.5; 78.0; 0.75; 0.50; 296.6517; 300.5226; 354.0114; 0.5; 1.3; 13.75;30;6; 29ACD7EF0921E59C0302D2F56FB9F98071A7A941860A0A29AC06
2022-04-22 00:00; 56.438100; -61.473600; 2664.00; 2664.00; 1024.2; 0.1; -1.6; -6.4; 67.5; 1.75; 1.75; 183.3399; 183.3399; 354.3633; 0.5; 1.3; 13.75;30;31; 29A0D9D009221887070782609FBDF98071A7A541860A0A29A01F
2022-04-21 21:00; 56.438280; -61.473600; 2661.00; 2661.00; 1024.1; 0.4; -1.6; -3.7; 63.5; 5.25; 5.25; 308.6163; 308.6163; 354.3633; 0.5; 1.3; 13.75;30;29; 2994D9B03922337F1515DB76DFBDF98071A7A941860A0A29941D
2022-04-21 18:00; 56.438100; -61.473600; 2658.00; 2658.00; 1023.7; 2.8; -1.7; -3.1; 65.0; 6.50; 6.50; 300.1707; 300.1707; 354.3633; 0.5; 1.3; 13.75;30;30; 2988D931B91E39821A1AD5755FBDF98071A7A541860A0A29881E
2022-04-21 15:00; 56.438100; -61.473600; 2655.00; 2655.00; 1020.9; 3.8; -1.7; -4.7; 65.5; 12.50; 12.50; 310.3758; 310.3758; 354.7152; 0.5; 1.3; 13.75;30;5; 297CD5B2591E29833232DCB72FC1F98071A7A541860A0A297C05
2022-04-21 12:00; 56.438100; -61.473600; 2652.00; 2652.00; 1017.1; 6.0; -1.7; -6.1; 68.5; 8.00; 8.00; 293.4846; 293.4846; 354.3633; 0.5; 1.3; 13.75;30;30; 2970D0F3B91E1B892020D0B42FBDF98071A7A541860A0A29701E
2022-04-21 09:00; 56.438100; -61.473600; 2649.00; 2649.00; 1011.1; 4.3; -1.6; -6.8; 74.0; 13.50; 13.50; 309.6720; 309.6720; 354.3633; 0.5; 1.3; 13.75;30;27; 2964C972A92214943636DC370FBDF98071A7A541860A0A29641B
2022-04-21 06:00; 56.438100; -61.473600; 2646.00; 2646.00; 1006.8; 7.4; -1.6; -5.9; 77.0; 6.50; 6.50; 330.0822; 330.0822; 354.3633; 0.5; 1.3; 13.75;30;30; 2958C41499221D9A1A1AEABAAFBDF98071A7A541860A0A29581E
2022-04-21 03:00; 56.438100; -61.473600; 2643.00; 2643.00; 999.4; 4.1; -1.5; -2.7; 76.5; 15.00; 15.00; 309.6720; 309.6720; 355.0671; 0.5; 1.3; 13.75;30;11; 294CBAD289263D993C3CDC370FC5F98071A7A541860A0A294C0B
2022-04-21 00:00; 56.438100; -61.473600; 2640.00; 2640.00; 995.3; 0.1; -1.5; 1.5; 96.5; 1.00; 0.25; 235.4211; 249.4971; 354.0114; 0.5; 1.2; 13.75;30;29; 2940B5B0092667C10401A76C5FB9F98031A7A541860A0A29401D
2022-04-20 21:00; 56.438280; -61.473600; 2637.00; 2637.00; 995.2; -2.8; -1.5; 2.1; 90.5; 5.00; 5.00; 174.1905; 174.1905; 354.3633; 0.5; 1.2; 13.75;30;29; 2934B58E39266DB514147BDEFFBDF98031A7A941860A0A29341D
2022-04-20 18:00; 56.438280; -61.473600; 2634.00; 2634.00; 998.0; -5.1; -1.6; 0.6; 93.0; 6.00; 6.00; 148.5018; 148.8537; 354.0114; 0.5; 1.2; 13.75;30;28; 2928B90CC9225EBA1818699A7FB9F98031A7A941860A0A29281C
2022-04-20 15:00; 56.438100; -61.473600; 2631.00; 2631.00; 1003.0; -6.6; -1.7; -1.5; 93.5; 7.50; 7.50; 156.2436; 156.2436; 354.3633; 0.5; 1.2; 13.75;30;11; 291CBF4BD91E49BB1E1E6F1BCFBDF98031A7A541860A0A291C0B
2022-04-20 12:00; 56.438100; -61.473600; 2628.00; 2628.00; 1009.6; -6.1; -1.7; -2.5; 93.0; 10.00; 10.00; 146.3904; 146.7423; 354.3633; 0.5; 1.3; 13.75;30;29; 2910C78C291E3FBA2828681A1FBDF98071A7A541860A0A29101D
2022-04-20 09:00; 56.438100; -61.473600; 2625.00; 2625.00; 1015.7; -6.4; -1.7; -3.6; 96.5; 6.50; 6.50; 120.3498; 119.9979; 354.0114; 0.5; 1.3; 13.75;30;29; 2904CF2BF91E34C11A1A55955FB9F98071A7A541860A0A29041D
2022-04-20 06:00; 56.438100; -61.473600; 2622.00; 2622.00; 1022.2; -3.1; -1.8; -3.8; 85.5; 5.00; 5.00; 109.0890; 109.0890; 354.3633; 0.5; 1.3; 13.75;30;30; 28F8D74E091A32AB14144D936FBDF98071A7A541860A0A28F81E
2022-04-20 03:00; 56.438100; -61.473600; 2619.00; 2619.00; 1025.3; -3.3; -1.8; -5.1; 86.5; 5.25; 5.25; 116.4789; 116.4789; 354.3633; 0.5; 1.3; 13.75;30;17; 28ECDB2DE91A25AD151552D4BFBDF98071A7A541860A0A28EC11
2022-04-20 00:00; 56.438100; -61.473600; 2616.00; 2616.00; 1028.6; -2.8; -1.8; -5.4; 68.0; 6.50; 6.50; 143.5752; 143.2233; 354.7152; 0.5; 1.3; 13.75;30;29; 28E0DF4E391A22881A1A66197FC1F98071A7A541860A0A28E01D
2022-04-19 21:00; 56.438280; -61.473600; 2613.00; 2613.00; 1031.4; -2.4; -1.7; -6.4; 75.5; 5.75; 5.75; 121.7574; 121.7574; 354.3633; 0.5; 1.3; 13.75;30;7; 28D4E2CE791E189717175695AFBDF98071A7A941860A0A28D407
2022-04-19 18:00; 56.438100; -61.473600; 2610.00; 2610.00; 1033.8; -0.9; -1.8; -5.8; 62.0; 4.00; 4.00; 130.2030; 130.2030; 354.3633; 0.5; 1.3; 13.60;30;31; 28C8E5CF691A1E7C10105C972FBDF98071A7A54186098A28C81F
2022-04-19 15:00; 56.438280; -61.473600; 2607.00; 2607.00; 1034.7; -0.8; -2.0; -6.3; 45.5; 1.25; 1.25; 139.7043; 139.7043; 354.3633; 0.5; 1.3; 13.60;30;28; 28BCE6EF7912195B05056358DFBDF98071A7A94186098A28BC1C
2022-04-19 12:00; 56.438100; -61.473600; 2604.00; 2604.00; 1035.4; 0.8; -2.2; -14.6; 71.0; 0.75; 0.75; 257.2389; 257.2389; 354.3633; 0.5; 1.3; 13.60;30;32; 28B0E7D07909C68E0303B6EDBFBDF98071A7A54186098A28B020
2022-04-19 09:00; 56.438100; -61.473600; 2601.00; 2601.00; 1034.6; 0.9; -2.2; -19.2; 78.5; 0.00; 0.00; 26.3925; 0.0000; 354.3633; 0.5; 1.4; 13.60;30;12; 28A4E6D08909989D000012C00FBDF980B1A7A54186098A28A40C
2022-04-19 06:00; 56.438100; -61.473600; 2598.00; 2598.00; 1033.8; 2.0; -2.0; -14.2; 64.0; 1.00; 1.00; 292.4289; 292.7808; 354.3633; 0.5; 1.3; 13.75;30;31; 2898E5D13911CA800404CFF40FBDF98071A7A541860A0A28981F
2022-04-19 03:00; 56.438280; -61.473600; 2595.00; 2595.00; 1031.8; 1.4; -1.9; -14.1; 66.5; 1.75; 1.75; 282.5757; 282.5757; 354.3633; 0.5; 1.3; 13.75;30;11; 288CE350D915CB850707C8F23FBDF98071A7A941860A0A288C0B
2022-04-19 00:00; 56.438280; -61.473600; 2592.00; 2592.00; 1030.4; 1.8; -1.7; -11.4; 67.5; 1.00; 1.00; 251.6085; 259.3503; 354.3633; 0.5; 1.3; 13.75;30;30; 2880E191191DE6870404B2EE1FBDF98071A7A941860A0A28801E
2022-04-18 21:00; 56.438100; -61.473600; 2589.00; 2589.00; 1028.5; 1.8; -1.6; -7.4; 63.5; 2.25; 2.25; 53.8407; 53.8407; 354.0114; 0.5; 1.2; 13.75;30;11; 2874DF3119220E7F090926499FB9F98031A7A541860A0A28740B
2022-04-18 18:00; 56.438100; -61.473600; 2586.00; 2586.00; 1026.7; 1.3; -1.6; -6.6; 59.0; 4.50; 3.25; 18.2988; 19.0026; 354.3633; 0.5; 1.2; 13.75;30;31; 2868DCF0C9221676120D0D036FBDF98031A7A541860A0A28681F
2022-04-18 15:00; 56.438100; -61.473600; 2583.00; 2583.00; 1025.4; 1.7; -1.6; -6.8; 66.0; 5.75; 5.75; 5.9823; 5.9823; 354.3633; 0.5; 1.2; 13.75;30;6; 285CDB5109221484171704411FBDF98031A7A541860A0A285C06
2022-04-18 12:00; 56.438100; -61.473600; 2580.00; 2580.00; 1023.8; 2.2; -1.7; -9.0; 77.0; 8.00; 8.00; 49.6179; 49.2660; 354.3633; 0.5; 1.3; 13.75;30;27; 2850D951591DFE9A20202348CFBDF98071A7A541860A0A28501B
2022-04-18 09:00; 56.438280; -61.473600; 2577.00; 2577.00; 1021.6; 2.7; -1.6; -8.3; 84.5; 5.25; 5.25; 49.9698; 49.9698; 353.6595; 0.5; 1.2; 13.75;30;11; 2844D691A92205A915152388EFB5F98031A7A941860A0A28440B
2022-04-18 06:00; 56.438100; -61.473600; 2574.00; 2574.00; 1018.8; 1.0; -1.5; -6.3; 89.0; 12.75; 12.75; 53.4888; 53.4888; 354.0114; 0.5; 1.3; 13.75;30;29; 2838D310992619B2333326098FB9F98071A7A541860A0A28381D
2022-04-18 03:00; 56.438280; -61.473600; 2571.00; 2571.00; 1017.8; 1.5; -1.5; -4.7; 86.5; 11.25; 11.25; 53.4888; 53.1369; 354.0114; 0.5; 1.2; 13.75;30;6; 282CD1D0E92629AD2D2D26097FB9F98031A7A941860A0A282C06
2022-04-18 00:00; 56.438100; -61.473600; 2568.00; 2568.00; 1016.3; 1.7; -1.4; -2.1; 74.0; 6.00; 6.00; 1.4076; 1.4076; 354.0114; 0.5; 1.3; 13.75;30;29; 2820CFF1092A4394181801004FB9F98071A7A541860A0A28201D
2022-04-17 21:00; 56.438100; -61.473600; 2565.00; 2565.00; 1014.6; 2.0; -1.4; -1.4; 74.5; 4.75; 4.75; 330.0822; 330.0822; 354.0114; 0.5; 1.2; 13.75;30;10; 2814CDD1392A4A951313EABAAFB9F98031A7A541860A0A28140A
2022-04-17 18:00; 56.438100; -61.473600; 2562.00; 2562.00; 1012.7; 1.4; -1.4; 1.0; 71.0; 5.00; 5.00; 310.3758; 310.0239; 354.0114; 0.5; 1.2; 13.75;30;30; 2808CB70D92A628E1414DCB71FB9F98031A7A541860A0A28081E
2022-04-17 15:00; 56.438100; -61.473600; 2559.00; 2559.00; 1011.3; 1.3; -1.5; 0.0; 77.0; 7.75; 7.75; 306.1530; 306.1530; 353.6595; 0.5; 1.2; 13.75;30;11; 27FCC9B0C926589A1F1FD9B66FB5F98031A7A541860A0A27FC0B
2022-04-17 12:00; 56.438100; -61.473600; 2556.00; 2556.00; 1010.0; 2.5; -1.6; -2.5; 77.0; 0.50; 0.50; 282.5757; 282.2238; 354.0114; 0.5; 1.2; 13.75;30;30; 27F0C81189223F9A0202C8F22FB9F98031A7A541860A0A27F01E
2022-04-17 09:00; 56.438100; -61.473600; 2553.00; 2553.00; 1007.5; 1.7; -1.6; -8.0; 83.5; 3.75; 3.75; 311.7834; 311.7834; 354.0114; 0.5; 1.3; 13.75;30;7; 27E4C4F1092208A70F0FDDB76FB9F98071A7A541860A0A27E407
2022-04-17 06:00; 56.438100; -61.473600; 2550.00; 2550.00; 1005.8; 1.3; -1.5; -6.6; 85.5; 1.00; 1.00; 351.9000; 353.3076; 354.3633; 0.5; 1.2; 13.75;30;29; 27D8C2D0C92616AB0404FA3ECFBDF98031A7A541860A0A27D81D
2022-04-17 03:00; 56.438280; -61.473600; 2547.00; 2547.00; 1004.5; 1.0; -1.5; -4.5; 85.0; 2.25; 2.25; 320.5809; 320.5809; 354.3633; 0.5; 1.2; 13.75;30;6; 27CCC13099262BAA0909E3F8FFBDF98031A7A941860A0A27CC06
2022-04-17 00:00; 56.438280; -61.473600; 2544.00; 2544.00; 1003.5; 0.4; -1.4; -2.6; 83.0; 3.00; 3.00; 314.9505; 314.9505; 353.6595; 0.5; 1.2; 13.75;30;30; 27C0BFF0392A3EA60C0CDFF7FFB5F98031A7A941860A0A27C01E
2022-04-16 21:00; 56.438100; -61.473600; 2541.00; 2541.00; 1003.1; -0.4; -1.4; -1.6; 87.0; 3.50; 3.50; 359.2899; 359.2899; 353.6595; 0.5; 1.2; 13.75;30;11; 27B4BF6FB92A48AE0E0EFF7FDFB5F98031A7A541860A0A27B40B
2022-04-16 18:00; 56.438100; -61.473600; 2538.00; 2538.00; 1003.4; -2.0; -1.5; -1.9; 87.5; 5.25; 5.25; 48.5622; 48.5622; 354.3633; 0.5; 1.2; 13.75;30;30; 27A8BFCEB92645AF15152288AFBDF98031A7A541860A0A27A81E
2022-04-16 15:00; 56.438280; -61.473600; 2535.00; 2535.00; 1005.4; -1.4; -1.6; -3.3; 88.0; 5.00; 5.00; 57.7116; 56.6559; 354.0114; 0.5; 1.2; 13.75;30;10; 279CC24F192237B01414290A1FB9F98031A7A941860A0A279C0A
2022-04-16 12:00; 56.438280; -61.473600; 2532.00; 2532.00; 1006.8; -1.8; -1.6; -4.9; 88.5; 5.75; 5.75; 51.3774; 51.3774; 354.7152; 0.5; 1.3; 13.75;30;29; 2790C40ED92227B1171724892FC1F98071A7A941860A0A27901D
2022-04-16 09:00; 56.438280; -61.473600; 2529.00; 2529.00; 1008.6; -2.3; -1.6; -4.8; 87.5; 5.25; 5.25; 91.1421; 91.1421; 354.3633; 0.5; 1.2; 13.75;30;28; 2784C64E892228AF151540D03FBDF98031A7A941860A0A27841C
2022-04-16 06:00; 56.438100; -61.473600; 2526.00; 2526.00; 1010.9; -2.8; -1.6; -5.6; 90.5; 5.25; 5.00; 103.4586; 103.4586; 354.0114; 0.5; 1.3; 13.75;30;30; 2778C92E392220B5151449926FB9F98071A7A541860A0A27781E
2022-04-16 03:00; 56.438280; -61.473600; 2523.00; 2523.00; 1013.6; -1.7; -1.6; -5.9; 88.0; 5.25; 5.25; 122.4612; 122.4612; 354.3633; 0.5; 1.3; 13.75;30;10; 276CCC8EE9221DB015155715CFBDF98071A7A941860A0A276C0A
2022-04-16 00:00; 56.438100; -61.473600; 2520.00; 2520.00; 1015.4; -0.9; -1.6; -6.0; 89.5; 5.50; 5.50; 118.2384; 117.8865; 354.0114; 0.5; 1.3; 13.75;30;30; 2760CECF69221CB316165414FFB9F98071A7A541860A0A27601E
2022-04-15 21:00; 56.438100; -61.473600; 2517.00; 2517.00; 1016.3; -2.0; -1.5; -6.0; 87.5; 5.00; 5.00; 123.8688; 123.8688; 354.3633; 0.5; 1.3; 13.75;30;11; 2754CFEEB9261CAF141458160FBDF98071A7A541860A0A27540B
2022-04-15 18:00; 56.438280; -61.473600; 2514.00; 2514.00; 1018.2; -2.3; -1.5; -5.5; 85.0; 4.25; 4.25; 122.8131; 122.8131; 354.3633; 0.5; 1.2; 13.75;30;30; 2748D24E892621AA11115755DFBDF98031A7A941860A0A27481E
2022-04-15 15:00; 56.438100; -61.473600; 2511.00; 2511.00; 1020.5; -1.4; -1.6; -6.5; 83.0; 3.75; 3.75; 122.4612; 122.1093; 354.7152; 0.5; 1.3; 13.75;30;8; 273CD52F192217A60F0F5715BFC1F98071A7A541860A0A273C08
2022-04-15 12:00; 56.438280; -61.473600; 2508.00; 2508.00; 1021.9; -0.4; -1.7; -8.0; 81.5; 3.00; 3.00; 115.4232; 115.0713; 354.0114; 0.5; 1.3; 13.75;30;30; 2730D6EFB91E08A30C0C52147FB9F98071A7A941860A0A27301E
2022-04-15 09:00; 56.438280; -61.473600; 2505.00; 2505.00; 1022.3; -0.5; -1.7; -8.7; 85.0; 3.50; 3.50; 128.0916; 128.0916; 354.3633; 0.5; 1.3; 13.75;30;7; 2724D76FA91E01AA0E0E5B16CFBDF98071A7A941860A0A272407
2022-04-15 06:00; 56.438100; -61.473600; 2502.00; 2502.00; 1022.8; -0.5; -1.6; -8.1; 82.0; 2.25; 2.25; 24.2811; 24.2811; 354.3633; 0.5; 1.3; 13.75;30;28; 2718D80FA92207A4090911445FBDF98071A7A541860A0A27181C
2022-04-15 03:00; 56.438280; -61.473600; 2499.00; 2499.00; 1023.3; 0.3; -1.6; -7.6; 80.5; 3.00; 3.00; 56.3040; 55.9521; 354.3633; 0.5; 1.2; 13.75;30;11; 270CD8B029220CA10C0C2809FFBDF98031A7A941860A0A270C0B
2022-04-15 00:00; 56.438100; -61.473600; 2496.00; 2496.00; 1023.0; 1.4; -1.5; -6.6; 80.0; 1.75; 1.75; 97.4763; 98.5320; 354.3633; 0.5; 1.3; 13.75;30;29; 2700D850D92616A0070745518FBDF98071A7A541860A0A27001D
2022-04-14 21:00; 56.438280; -61.473600; 2493.00; 2493.00; 1021.6; -0.8; -1.4; -4.8; 81.0; 3.75; 3.75; 63.3420; 63.6939; 354.0114; 0.5; 1.2; 13.75;30;7; 26F4D68F792A28A20F0F2D0B5FB9F98031A7A941860A0A26F407
2022-04-14 18:00; 56.438280; -61.473600; 2490.00; 2490.00; 1022.4; 0.4; -1.4; -4.0; 80.0; 4.00; 4.00; 62.9901; 62.9901; 354.3633; 0.5; 1.2; 13.75;30;28; 26E8D790392A30A010102CCB3FBDF98031A7A941860A0A26E81C
2022-04-14 15:00; 56.438280; -61.473600; 2487.00; 2487.00; 1022.0; 0.8; -1.4; -4.0; 82.5; 6.00; 6.00; 64.3977; 64.3977; 354.3633; 0.5; 1.2; 13.75;30;30; 26DCD710792A30A518182DCB7FBDF98031A7A941860A0A26DC1E
2022-04-14 12:00; 56.438280; -61.473600; 2484.00; 2484.00; 1021.2; 0.6; -1.5; -3.6; 81.5; 5.50; 5.50; 73.8990; 73.5471; 354.0114; 0.5; 1.3; 13.75;30;29; 26D0D610592634A31616348D1FB9F98071A7A941860A0A26D01D
2022-04-14 09:00; 56.438100; -61.473420; 2481.00; 2481.00; 1020.6; 1.0; -1.4; -3.3; 80.0; 3.00; 3.00; 323.7480; 323.7480; 354.0114; 0.5; 1.2; 13.75;30;12; 26C4D550992A37A00C0CE6398FB9F98031A7A541862A0A26C40C
2022-04-14 06:00; 56.438100; -61.473600; 2478.00; 2478.00; 1019.6; 1.0; -1.4; -3.4; 83.5; 3.00; 3.00; 28.1520; 28.8558; 354.3633; 0.5; 1.2; 13.75;30;30; 26B8D410992A36A70C0C14052FBDF98031A7A541860A0A26B81E
2022-04-14 03:00; 56.438100; -61.473600; 2475.00; 2475.00; 1018.6; 0.7; -1.4; -2.6; 87.5; 7.00; 7.00; 60.1749; 60.1749; 354.0114; 0.5; 1.2; 13.75;30;9; 26ACD2D0692A3EAF1C1C2ACABFB9F98031A7A541860A0A26AC09
2022-04-14 00:00; 56.438280; -61.473600; 2472.00; 2472.00; 1017.9; 1.9; -1.3; -1.4; 85.5; 7.50; 7.50; 63.3420; 63.3420; 353.6595; 0.5; 1.2; 13.75;30;32; 26A0D1F1292E4AAB1E1E2D0B4FB5F98031A7A941860A0A26A020
2022-04-13 21:00; 56.438100; -61.473420; 2469.00; 2469.00; 1015.9; 0.8; -1.3; -0.3; 84.0; 4.75; 4.75; 73.5471; 72.8433; 354.0114; 0.5; 1.2; 13.75;33;10; 2694CF70792E55A81313344CFFB9F98031A7A541862A0B26940A
2022-04-13 18:00; 56.438280; -61.473600; 2466.00; 2466.00; 1015.1; 0.4; -1.3; 0.7; 83.0; 3.50; 3.50; 57.0078; 57.0078; 354.3633; 0.5; 1.2; 13.75;30;29; 2688CE70392E5FA60E0E288A2FBDF98031A7A941860A0A26881D
2022-04-13 15:00; 56.438100; -61.473600; 2463.00; 2463.00; 1014.7; 0.4; -1.4; 0.0; 87.5; 4.75; 4.75; 49.9698; 49.9698; 354.3633; 0.5; 1.2; 13.75;30;14; 267CCDF0392A58AF13132388EFBDF98031A7A541860A0A267C0E
2022-04-13 12:00; 56.438280; -61.473600; 2460.00; 2460.00; 1014.3; 1.2; -1.4; -0.5; 87.0; 2.50; 2.50; 62.6382; 63.3420; 354.0114; 0.5; 1.2; 13.75;30;31; 2670CD70B92A53AE0A0A2C8B4FB9F98031A7A941860A0A26701F
2022-04-13 09:00; 56.438280; -61.473600; 2457.00; 2457.00; 1013.1; 0.6; -1.4; -1.5; 96.0; 1.50; 1.50; 39.4128; 39.4128; 354.0114; 0.5; 1.2; 13.75;30;7; 2664CBF0592A49C006061C070FB9F98031A7A941860A0A266407
2022-04-13 06:00; 56.438280; -61.473600; 2454.00; 2454.00; 1012.5; -0.1; -1.4; -1.0; 97.5; 1.75; 1.75; 148.8537; 148.8537; 353.6595; 0.5; 1.2; 13.75;30;31; 2658CB2FE92A4EC3070769DA7FB5F98031A7A941860A0A26581F
2022-04-13 03:00; 56.438280; -61.473600; 2451.00; 2451.00; 1012.6; -0.2; -1.4; -0.6; 96.0; 1.25; 1.25; 198.4716; 198.4716; 354.0114; 0.5; 1.2; 13.75;30;9; 264CCB4FD92A52C005058D234FB9F98031A7A941860A0A264C09
2022-04-13 00:00; 56.438280; -61.473600; 2448.00; 2448.00; 1012.8; 0.4; -1.4; -0.5; 94.0; 2.50; 2.50; 102.7548; 103.4586; 354.0114; 0.5; 1.2; 13.75;30;28; 2640CB90392A53BC0A0A49126FB9F98031A7A941860A0A26401C
2022-04-12 21:00; 56.438100; -61.473600; 2445.00; 2445.00; 1012.4; 0.2; -1.4; 0.5; 89.5; 2.50; 2.50; 77.7699; 77.4180; 354.0114; 0.5; 1.2; 13.75;30;28; 2634CB10192A5DB30A0A374DCFB9F98031A7A541860A0A26341C
2022-04-12 18:00; 56.438280; -61.473600; 2442.00; 2442.00; 1012.2; -0.4; -1.4; 0.9; 87.0; 2.75; 2.75; 58.7673; 58.7673; 354.0114; 0.5; 1.2; 13.75;30;29; 2628CACFB92A61AE0B0B29CA7FB9F98031A7A941860A0A26281D
2022-04-12 15:00; 56.438100; -61.473600; 2439.00; 2439.00; 1012.7; -1.2; -1.4; 0.2; 86.0; 4.25; 4.25; 49.9698; 49.6179; 354.0114; 0.5; 1.2; 13.75;30;9; 261CCB6F392A5AAC11112388DFB9F98031A7A541860A0A261C09
2022-04-12 12:00; 56.438280; -61.473600; 2436.00; 2436.00; 1013.9; 0.7; -1.5; -0.4; 87.0; 3.25; 3.25; 54.1926; 53.8407; 354.0114; 0.5; 1.2; 13.75;30;30; 2610CCF0692654AE0D0D26899FB9F98031A7A941860A0A26101E
2022-04-12 09:00; 56.438280; -61.473600; 2433.00; 2433.00; 1013.2; 0.5; -1.5; -0.8; 87.5; 3.50; 3.50; 11.6127; 11.6127; 354.0114; 0.5; 1.2; 13.75;30;13; 2604CC10492650AF0E0E08421FB9F98031A7A941860A0A26040D
2022-04-12 06:00; 56.438280; -61.473600; 2430.00; 2430.00; 1012.7; -0.5; -1.4; -1.0; 93.0; 2.25; 2.25; 52.7850; 53.1369; 354.0114; 0.5; 1.2; 13.75;30;29; 25F8CB6FA92A4EBA090925897FB9F98031A7A941860A0A25F81D
2022-04-12 03:00; 56.438280; -61.473600; 2427.00; 2427.00; 1013.2; 0.5; -1.4; -0.6; 89.5; 2.00; 2.00; 15.4836; 15.4836; 354.3633; 0.5; 1.2; 13.75;30;12; 25ECCC10492A52B308080B02CFBDF98031A7A941860A0A25EC0C
2022-04-12 00:00; 56.438280; -61.473600; 2424.00; 2424.00; 1012.7; 1.7; -1.4; -0.5; 89.0; 3.75; 3.75; 19.0026; 18.6507; 354.0114; 0.5; 1.2; 13.75;30;31; 25E0CB71092A53B20F0F0D835FB9F98031A7A941860A0A25E01F
2022-04-11 21:00; 56.438100; -61.473600; 2421.00; 2421.00; 1011.0; 0.6; -1.4; 0.0; 87.5; 7.50; 7.50; 52.7850; 52.4331; 354.3633; 0.5; 1.2; 13.75;30;10; 25D4C950592A58AF1E1E25895FBDF98031A7A541860A0A25D40A
2022-04-11 18:00; 56.438100; -61.473600; 2418.00; 2418.00; 1010.4; 1.0; -1.4; -0.1; 88.5; 4.75; 4.75; 72.1395; 72.1395; 354.3633; 0.5; 1.2; 13.75;30;30; 25C8C890992A57B11313334CDFBDF98031A7A541860A0A25C81E
2022-04-11 15:00; 56.438280; -61.473600; 2415.00; 2415.00; 1009.4; 1.1; -1.4; -0.3; 90.0; 2.50; 2.50; 24.9849; 24.9849; 354.0114; 0.5; 1.2; 13.75;30;13; 25BCC750A92A55B40A0A11C47FB9F98031A7A941860A0A25BC0D
2022-04-11 12:00; 56.438280; -61.473600; 2412.00; 2412.00; 1008.3; 2.4; -1.5; -1.8; 98.5; 1.50; 1.50; 118.9422; 119.2941; 354.0114; 0.5; 1.2; 13.75;30;29; 25B0C5F1792646C5060654953FB9F98031A7A941860A0A25B01D
2022-04-11 09:00; 56.438100; -61.473600; 2409.00; 2409.00; 1005.9; 0.7; -1.5; -2.7; 99.0; 1.75; 1.75; 118.5903; 118.5903; 354.0114; 0.5; 1.2; 13.75;30;29; 25A4C2F069263DC6070754551FB9F98031A7A541860A0A25A41D
2022-04-11 06:00; 56.438100; -61.473600; 2406.00; 2406.00; 1005.2; 0.8; -1.5; -2.8; 99.5; 1.75; 1.75; 131.9625; 131.9625; 354.3633; 0.5; 1.2; 13.75;30;28; 2598C21079263CC707075DD77FBDF98031A7A541860A0A25981C
2022-04-11 03:00; 56.438280; -61.473600; 2403.00; 2403.00; 1004.4; 0.0; -1.4; -2.3; 100.0; 2.50; 2.50; 111.9042; 111.9042; 354.7152; 0.5; 1.2; 13.75;30;18; 258CC10FF92A41C80A0A4F93EFC1F98031A7A941860A0A258C12
2022-04-11 00:00; 56.438100; -61.473600; 2400.00; 2400.00; 1004.4; 0.9; -1.4; -0.1; 100.0; 1.50; 1.50; 122.4612; 120.3498; 354.3633; 0.5; 1.2; 13.75;30;29; 2580C110892A57C8060657156FBDF98031A7A541860A0A25801D
2022-04-10 21:00; 56.438100; -61.473600; 2397.00; 2397.00; 1003.5; 0.4; -1.4; 1.2; 94.5; 2.00; 2.00; 129.4992; 129.8511; 354.0114; 0.5; 1.2; 13.75;30;29; 2574BFF0392A64BD08085C171FB9F98031A7A541860A0A25741D
2022-04-10 18:00; 56.438100; -61.473600; 2394.00; 2394.00; 1003.0; -0.2; -1.4; 2.1; 89.5; 1.50; 1.50; 156.5955; 156.5955; 354.3633; 0.5; 1.2; 13.75;30;30; 2568BF4FD92A6DB306066F5BDFBDF98031A7A541860A0A25681E
2022-04-10 15:00; 56.438280; -61.473600; 2391.00; 2391.00; 1003.2; 0.0; -1.5; 4.2; 79.0; 0.50; 0.50; 51.0255; 51.0255; 354.7152; 0.5; 1.2; 13.75;30;12; 255CBF8FF926829E020224491FC1F98031A7A941860A0A255C0C
2022-04-10 12:00; 56.438280; -61.473600; 2388.00; 2388.00; 1003.2; 0.7; -1.5; -0.4; 93.5; 0.75; 0.75; 352.6038; 352.6038; 354.3633; 0.5; 1.2; 13.75;30;47; 2550BF90692654BB0303FABEAFBDF98031A7A941860A0A25502F
2022-04-10 09:00; 56.438280; -61.473600; 2385.00; 2385.00; 1002.5; -0.1; -1.5; -2.1; 99.5; 0.75; 0.75; 325.8594; 325.8594; 354.3633; 0.5; 1.2; 13.75;30;12; 2544BEAFE92643C70303E7B9EFBDF98031A7A941860A0A25440C
2022-04-10 06:00; 56.438280; -61.473600; 2382.00; 2382.00; 1002.7; -0.6; -1.5; -2.5; 99.0; 0.50; 0.50; 77.7699; 77.7699; 354.0114; 0.5; 1.3; 13.75;30;30; 2538BEEF99263FC60202374DDFB9F98071A7A941860A0A25381E
2022-04-10 03:00; 56.438280; -61.473600; 2379.00; 2379.00; 1003.3; -1.4; -1.4; -1.6; 98.0; 2.00; 2.00; 131.6106; 131.6106; 354.0114; 0.5; 1.2; 13.75;30;12; 252CBFAF192A48C408085D976FB9F98031A7A941860A0A252C0C
2022-04-10 00:00; 56.438280; -61.473600; 2376.00; 2376.00; 1004.7; -1.0; -1.4; -0.7; 95.0; 5.00; 5.00; 159.4107; 159.4107; 353.6595; 0.5; 1.2; 13.75;30;30; 2520C16F592A51BE1414715C5FB5F98031A7A941860A0A25201E
2022-04-09 21:00; 56.438100; -61.473600; 2373.00; 2373.00; 1005.7; -2.3; -1.4; -0.7; 95.0; 6.50; 6.50; 162.5778; 162.5778; 354.3633; 0.5; 1.2; 13.75;30;29; 2514C2AE892A51BE1A1A739CEFBDF98031A7A541860A0A25141D
2022-04-09 18:00; 56.438100; -61.473600; 2370.00; 2370.00; 1008.0; -3.9; -1.4; -0.5; 93.0; 9.75; 9.75; 149.5575; 149.9094; 354.3633; 0.5; 1.3; 13.75;30;29; 2508C58D892A53BA27276A5AAFBDF98071A7A541860A0A25081D
2022-04-09 15:00; 56.438100; -61.473600; 2367.00; 2367.00; 1011.9; -4.0; -1.5; -2.0; 94.5; 5.75; 5.75; 124.5726; 124.5726; 354.3633; 0.5; 1.3; 13.75;30;7; 24FCCA6D792644BD171758962FBDF98071A7A541860A0A24FC07
2022-04-09 12:00; 56.438280; -61.473600; 2364.00; 2364.00; 1015.9; -2.4; -1.8; -2.9; 95.5; 8.25; 8.00; 119.9979; 119.9979; 353.6595; 0.5; 1.3; 13.75;30;28; 24F0CF6E791A3BBF212055555FB5F98071A7A941860A0A24F01C
2022-04-09 09:00; 56.438100; -61.473600; 2361.00; 2361.00; 1018.3; -2.4; -1.9; -2.9; 96.0; 6.00; 6.00; 109.7928; 109.7928; 353.6595; 0.5; 1.3; 13.75;30;12; 24E4D26E79163BC018184E138FB5F98071A7A541860A0A24E40C
2022-04-09 06:00; 56.438100; -61.473600; 2358.00; 2358.00; 1020.7; -2.0; -1.8; -4.1; 96.5; 3.25; 3.25; 94.3092; 93.9573; 354.0114; 0.5; 1.3; 13.75;30;29; 24D8D56EB91A2FC10D0D4310BFB9F98071A7A541860A0A24D81D
2022-04-09 03:00; 56.438280; -61.473600; 2355.00; 2355.00; 1022.7; -1.8; -1.8; -4.6; 94.5; 4.75; 4.50; 143.5752; 143.2233; 354.3633; 0.6; 1.3; 13.75;36;13; 24CCD7EED91A2ABD131266197FBDFA8071A7A941860A0C24CC0D
2022-04-09 00:00; 56.438280; -61.473600; 2352.00; 2352.00; 1024.5; 0.7; -1.8; -4.0; 95.0; 3.50; 3.50; 127.3878; 127.7397; 354.7152; 0.5; 1.3; 13.75;33;31; 24C0DA30691A30BE0E0E5A96BFC1F98071A7A941860A0B24C01F
2022-04-08 21:00; 56.438100; -61.473600; 2349.00; 2349.00; 1023.8; -0.1; -1.8; -3.0; 85.0; 4.50; 4.50; 135.4815; 135.1296; 354.0114; 0.5; 1.2; 13.75;30;28; 24B4D94FE91A3AAA121260580FB9F98031A7A541860A0A24B41C
2022-04-08 18:00; 56.438100; -61.473600; 2346.00; 2346.00; 1023.9; -1.2; -1.8; -1.4; 81.0; 4.50; 4.50; 125.9802; 125.9802; 354.3633; 0.5; 1.2; 13.75;30;30; 24A8D96F391A4AA2121259966FBDF98031A7A541860A0A24A81E
2022-04-08 15:00; 56.438280; -61.473600; 2343.00; 2343.00; 1025.1; -0.7; -1.9; 0.1; 67.0; 0.00; 0.00; 285.3909; 0.0000; 354.3633; 0.5; 1.3; 13.75;30;12; 249CDAEF891659860000CAC00FBDF98071A7A941860A0A249C0C
2022-04-08 12:00; 56.438280; -61.473600; 2340.00; 2340.00; 1025.9; -0.2; -1.9; -6.6; 84.0; 3.50; 3.50; 313.1910; 313.1910; 354.3633; 0.5; 1.3; 13.75;30;30; 2490DBEFD91616A80E0EDEB7AFBDF98071A7A941860A0A24901E
2022-04-08 09:00; 56.438280; -61.473600; 2337.00; 2337.00; 1026.1; -1.4; -1.9; -5.2; 93.0; 0.00; 0.00; 52.0812; 0.0000; 354.3633; 0.5; 1.3; 13.75;30;29; 2484DC2F191624BA000025000FBDF98071A7A941860A0A24841D
2022-04-08 06:00; 56.438100; -61.473600; 2334.00; 2334.00; 1027.5; -0.8; -1.9; -4.9; 92.5; 0.00; 0.00; 169.6158; 0.0000; 354.3633; 0.5; 1.3; 13.75;30;28; 2478DDEF791627B9000078800FBDF98071A7A541860A0A24781C
2022-04-08 03:00; 56.438280; -61.473600; 2331.00; 2331.00; 1028.3; -0.4; -1.8; -4.2; 90.0; 1.50; 1.50; 163.6335; 163.6335; 354.0114; 0.5; 1.3; 13.75;30;11; 246CDEEFB91A2EB40606745D1FB9F98071A7A941860A0A246C0B
2022-04-08 00:00; 56.438280; -61.473600; 2328.00; 2328.00; 1028.8; 0.4; -1.8; -4.2; 90.5; 2.00; 2.00; 134.4258; 134.4258; 354.0114; 0.5; 1.3; 13.75;30;29; 2460DF90391A2EB508085F97EFB9F98071A7A941860A0A24601D
2022-04-07 21:00; 56.438280; -61.473600; 2325.00; 2325.00; 1028.4; 0.4; -1.8; -2.4; 82.5; 3.00; 3.00; 138.6486; 138.6486; 354.0114; 0.5; 1.2; 13.75;36;29; 2454DF10391A40A50C0C6298AFB9F98031A7A941860A0C24541D
2022-04-07 18:00; 56.438100; -61.473600; 2322.00; 2322.00; 1028.0; 0.1; -1.8; -1.9; 80.5; 4.50; 4.50; 59.1192; 59.1192; 354.3633; 0.5; 1.2; 13.75;30;30; 2448DE90091A45A112122A0A8FBDF98031A7A541860A0A24481E
2022-04-07 15:00; 56.438280; -61.473600; 2319.00; 2319.00; 1027.9; 0.9; -1.9; -2.7; 82.0; 4.75; 4.75; 68.2686; 68.2686; 354.0114; 0.5; 1.2; 13.75;30;11; 243CDE7089163DA41313308C2FB9F98031A7A941860A0A243C0B
2022-04-07 12:00; 56.438280; -61.473600; 2316.00; 2316.00; 1027.0; 1.5; -1.9; -3.5; 87.5; 3.00; 3.00; 62.2863; 61.9344; 353.6595; 0.5; 1.3; 13.75;30;29; 2430DD50E91635AF0C0C2C4B0FB5F98071A7A941860A0A24301D
2022-04-07 09:00; 56.438100; -61.473600; 2313.00; 2313.00; 1025.5; 0.9; -1.9; -4.0; 87.5; 5.25; 5.25; 61.5825; 61.5825; 354.0114; 0.5; 1.3; 13.75;30;28; 2424DB70891630AF15152BCAFFB9F98071A7A541860A0A24241C
2022-04-07 06:00; 56.438100; -61.473600; 2310.00; 2310.00; 1024.6; 0.6; -1.9; -3.1; 89.5; 4.00; 4.00; 49.2660; 49.2660; 354.0114; 0.5; 1.3; 13.75;30;31; 2418DA50591639B310102308CFB9F98071A7A541860A0A24181F
2022-04-07 03:00; 56.438280; -61.473600; 2307.00; 2307.00; 1023.9; -0.1; -1.9; -1.7; 86.0; 4.50; 4.50; 46.0989; 46.0989; 354.3633; 0.5; 1.2; 13.75;30;12; 240CD96FE91647AC121220C83FBDF98031A7A941860A0A240C0C
2022-04-07 00:00; 56.438280; -61.473600; 2304.00; 2304.00; 1024.0; 1.0; -1.9; -1.6; 92.5; 3.75; 3.75; 48.9141; 49.2660; 354.3633; 0.5; 1.2; 13.75;30;30; 2400D990991648B90F0F22C8CFBDF98031A7A941860A0A24001E
2022-04-06 21:00; 56.438100; -61.473600; 2301.00; 2301.00; 1023.1; 1.2; -1.9; -0.6; 89.0; 1.25; 1.25; 121.4055; 119.2941; 354.3633; 0.5; 1.2; 13.75;30;28; 23F4D870B91652B2050556553FBDF98031A7A541860A0A23F41C
2022-04-06 18:00; 56.438100; -61.473600; 2298.00; 2298.00; 1021.9; 1.5; -1.9; 0.2; 87.0; 3.25; 3.25; 351.9000; 351.5481; 354.0114; 0.5; 1.2; 13.75;30;31; 23E8D6F0E9165AAE0D0DFA3E7FB9F98031A7A541860A0A23E81F
